stop_id,stop_name,stop_desc,stop_lat,stop_lon,stop_url,location_type,parent_station,wheelchair_boarding
J22209836,島田商業高校,島田市,34.833103,138.184097,,1,,0
J222093342_0,大津通り,島田市,34.838673,138.179367,,0,J222093342,0
J22209756_1,若松町西,島田市,34.8379304,138.1595728,,0,J22209756,0
J22209723_1,小川,島田市,34.9272744,138.1396824,,0,J22209723,0
J22209010,東町東,島田市,34.8271515,138.1394508,,1,,0
J22209744,渡口,島田市,34.8612354,138.1303412,,1,,0
J22209740,五番組公会堂,島田市,34.8705746,138.1176945,,1,,0
J22209785_1,旗指東,島田市,34.8416867,138.1716639,,0,J22209785,0
J22209851_0,向谷元町,島田市,34.8447787,138.1565929,,0,J22209851,0
J22209753_1,第一小学校,島田市,34.8410792,138.1540738,,0,J22209753,0
J22209727_1,長島,島田市,34.910398,138.1282095,,0,J22209727,0
J22209838_1,御仮屋,島田市,34.8347821,138.1902616,,0,J22209838,0
J22209013_0,むらい金谷店前,島田市,34.828996,138.1379059,,0,J22209013,0
J22209930_0,六合小学校,島田市,34.836083,138.2100164,,0,J22209930,0
J22209898_0,栄町公会堂前,島田市,34.829557,138.1281511,,0,J22209898,0
J22209922_1,粟原,島田市,35.0287499,138.1537757,,0,J22209922,0
J22209858_1,島中,島田市,34.8408766,138.1238564,,0,J22209858,0
J22209927_1,久野1,島田市,35.0356278,138.1670589,,0,J22209927,0
J22209822_1,ぎんもくせい,島田市,34.860818,138.17982,,0,J22209822,0
J22209779_0,向谷一丁目,島田市,34.843062,138.1493257,,0,J22209779,0
J22209739,大沢橋,島田市,34.8713642,138.1163577,,1,,0
J22209914_0,高日向,島田市,34.9881357,138.1279822,,0,J22209914,0
J22209780_0,三ッ合町西,島田市,34.841718,138.1555883,,0,J22209780,0
J22209729_0,伊久身幼稚園上,島田市,34.9050056,138.1120063,,0,J22209729,0
J22209792,幸町,島田市,34.8346937,138.175119,,1,,0
J22209872,四分一,島田市,34.850528,138.0877886,,1,,0
J22209941,消防団詰所北,島田市,34.834617,138.2166309,,1,,0
J22209908,笹間渡駅前,島田市,34.9626737,138.0863802,,1,,0
J22209798,下湯日,島田市,34.801809,138.196299,,1,,0
J22209897_0,栄町,島田市,34.827221,138.1294272,,0,J22209897,0
J22209828_0,上野田,島田市,34.849216,138.182819,,0,J22209828,0
J22209835_0,本通六丁目,島田市,34.8322331,138.1806545,,0,J22209835,0
J22209907,川根温泉前・川根温泉ホテル,島田市,34.9599787,138.0899126,,1,,0
J22209789,はなみずき入口,島田市,34.8401896,138.1800051,,1,,0
J22209943_0,島田南幼稚園,島田市,34.828699,138.176794,,0,J22209943,0
J22209715_0,二俣,島田市,34.9487904,138.1513566,,0,J22209715,0
J22209848,伊太団地,島田市,34.8546837,138.153207,,1,,0
J22209908_1,笹間渡駅前,島田市,34.9626031,138.0863724,,0,J22209908,0
J22209940,細島,島田市,34.833922,138.218568,,1,,0
J22209729_1,伊久身幼稚園上,島田市,34.9049563,138.1118532,,0,J22209729,0
J22209888,神谷城西公民館前,島田市,34.8061329,138.1191175,,1,,0
J22209840_1,栃山,島田市,34.836605,138.1993013,,0,J22209840,0
J22209841_1,島田工業高校,島田市,34.8376926,138.2024359,,0,J22209841,0
J22209718_0,中平中,島田市,34.9352246,138.1450082,,0,J22209718,0
J22209730_0,川口,島田市,34.9031246,138.1122183,,0,J22209730,0
J22209002,金谷往還下,島田市,34.8232983,138.1355024,,1,,0
J222093397,色尾,島田市,34.807352,138.220205,,1,,0
J22209819,慶寿寺入口,島田市,34.86607,138.1833,,1,,0
J22209830,中央公園・ばらの丘,島田市,34.8512231,138.1746957,,1,,0
J22209899_0,金谷中入口,島田市,34.832026,138.1267364,,0,J22209899,0
J222093342_1,大津通り,島田市,34.8386218,138.1792334,,0,J222093342,0
J22209924_1,中の瀬,島田市,35.0298949,138.1600236,,0,J22209924,0
J22209834_0,本通五丁目,島田市,34.8324415,138.178573,,0,J22209834,0
J22209725,犬間橋,島田市,34.921927,138.130737,,1,,0
J22209867,金谷本町,島田市,34.8231514,138.1293075,,1,,0
J22209840,栃山,島田市,34.8366002,138.199406,,1,,0
J22209768,高山,島田市,34.881287,138.142799,,1,,0
J22209953_0,元島田西,島田市,34.840374,138.182039,,0,J22209953,0
J22209849_1,伊太団地南,島田市,34.8523094,138.1537955,,0,J22209849,0
J22209763_0,養徳寺入口,島田市,34.8889168,138.1485586,,0,J22209763,0
J22209882,お茶の郷,島田市,34.814404,138.1338482,,1,,0
J22209897,栄町,島田市,34.8272695,138.1293467,,1,,0
J22209877,堤間団地東,島田市,34.8442874,138.1167089,,1,,0
J22209948,旭町東,島田市,34.8320268,138.1908571,,1,,0
J22209911,五軒屋,島田市,34.9806172,138.110018,,1,,0
J22209941_0,消防団詰所北,島田市,34.8345685,138.2166578,,0,J22209941,0
J22209771_0,寺前橋,島田市,34.8765566,138.1377345,,0,J22209771,0
J22209745_1,相賀橋,島田市,34.8605495,138.1323806,,0,J22209745,0
J22209724_0,やまびこ,島田市,34.9266143,138.1349728,,0,J22209724,0
J22209736,神座小学校,島田市,34.8749702,138.108899,,1,,0
J22209894_0,東町,島田市,34.826717,138.137324,,0,J22209894,0
J22209917_1,出本,島田市,35.0068173,138.1444714,,0,J22209917,0
J22209802_0,色尾西,島田市,34.80435,138.209204,,0,J22209802,0
J22209727,長島,島田市,34.910352,138.128166,,1,,0
J22209929,道悦四丁目,島田市,34.835214,138.207324,,1,,0
J22209867_1,金谷本町,島田市,34.822792,138.1287699,,0,J22209867,0
J22209950_1,八六橋,島田市,34.836812,138.1909058,,0,J22209950,0
J22209721_0,小川橋,島田市,34.9298508,138.1417923,,0,J22209721,0
J22209752_0,向谷四丁目南,島田市,34.8415514,138.1520272,,0,J22209752,0
J22209921_1,粟原下,島田市,35.0275048,138.1506318,,0,J22209921,0
J222093340_2,島田駅 北口２番のりば,島田市,34.8306016,138.1737504,,0,J222093340,0
J22209828_1,上野田,島田市,34.849271,138.182945,,0,J22209828,0
J22209874,なでしこ公民館,島田市,34.8490641,138.0983286,,1,,0
J22209929_1,道悦四丁目,島田市,34.83543,138.207428,,0,J22209929,0
J22209850_0,島田樟誠高校,島田市,34.8486363,138.1537121,,0,J22209850,0
J22209820_1,大草住宅,島田市,34.864624,138.181789,,0,J22209820,0
J22209811_1,谷口橋,島田市,34.820943,138.210504,,0,J22209811,0
J222093342,大津通り,島田市,34.8386553,138.1793218,,1,,0
J22209747,柳島,島田市,34.851056,138.14075,,1,,0
J2220952427,ばらの丘二丁目,島田市,34.857933,138.172815,,1,,0
J22209924_0,中の瀬,島田市,35.0298822,138.1601343,,0,J22209924,0
J22209800_0,沼伏,島田市,34.8035,138.203759,,0,J22209800,0
J22209798_1,下湯日,島田市,34.801723,138.196988,,0,J22209798,0
J22209009,横岡新田,島田市,34.855527,138.117928,,1,,0
J22209850_1,島田樟誠高校,島田市,34.8485061,138.1537094,,0,J22209850,0
J22209808_0,旧初,島田市,34.812628,138.216229,,0,J22209808,0
J22209871,大代茶農協前,島田市,34.8527333,138.0841583,,1,,0
J22209849,伊太団地南,島田市,34.8523668,138.1538247,,1,,0
J22209906_1,身成北,島田市,34.945772,138.089004,,0,J22209906,0
J22209933_1,北島東公園入口,島田市,34.838419,138.21894,,0,J22209933,0
J22209940_0,細島,島田市,34.8339154,138.2185009,,0,J22209940,0
J22209862_1,グループホームひぎり,島田市,34.8373007,138.1241247,,0,J22209862,0
J22209839,栃山橋,島田市,34.835934,138.197433,,1,,0
J22209772,杉沢上,島田市,34.8759205,138.1364882,,1,,0
J22209755_1,三ッ合町,島田市,34.8391546,138.1579367,,0,J22209755,0
J22209736_1,神座小学校,島田市,34.8748888,138.1089741,,0,J22209736,0
J22209776,宮沢,島田市,34.8663202,138.1323075,,1,,0
J22209931_0,細島橋,島田市,34.836205,138.2124415,,0,J22209931,0
J22209731_0,山の家,島田市,34.9013668,138.1123136,,0,J22209731,0
J22209843_1,田代環境プラザ,島田市,34.8692318,138.1527598,,0,J22209843,0
J22209791_1,市役所,島田市,34.835927,138.176401,,0,J22209791,0
J22209758,宮川町,島田市,34.8359833,138.1666018,,1,,0
J22209859_0,エコトープ前,島田市,34.8420512,138.1265168,,0,J22209859,0
J22209784_1,旗指西,島田市,34.8419463,138.1690626,,0,J22209784,0
J22209804_1,月坂一丁目,島田市,34.80454,138.212856,,0,J22209804,0
J22209801,沼伏東,島田市,34.8047101,138.205791,,1,,0
J22209006,金谷高校前,島田市,34.8275936,138.1271953,,1,,0
J22209846,上伊太下,島田市,34.8567343,138.1479348,,1,,0
J22209813,六合中学校,島田市,34.8337424,138.2038097,,1,,0
J222093326_1,田町,島田市,34.82085,138.1268358,,0,J222093326,0
J22209939_0,六合東小学校南,島田市,34.8332184,138.2224098,,0,J22209939,0
J22209870_1,五和製茶前,島田市,34.855853,138.083317,,0,J22209870,0
J22209901,家山駅前,島田市,34.9407954,138.0777883,,1,,0
J22209001,金谷中入口西,島田市,34.8311851,138.1232768,,1,,0
J222093395,谷口辻,島田市,34.8164601,138.2142347,,1,,0
J22209826,落合,島田市,34.853629,138.181943,,1,,0
J22209951_0,千歳橋,島田市,34.8386458,138.1894259,,0,J22209951,0
J22209916_0,竹島,島田市,35.0023594,138.1380777,,0,J22209916,0
J22209827_0,上野田公会堂,島田市,34.85191,138.182628,,0,J22209827,0
J22209813_0,六合中学校,島田市,34.8337498,138.2037308,,0,J22209813,0
J22209760_0,大井町,島田市,34.8342699,138.1719311,,0,J22209760,0
J22209946,旭町西,島田市,34.8298608,138.1866542,,1,,0
J22209782,中溝町西,島田市,34.8416324,138.1608553,,1,,0
J22209790,市民会館東,島田市,34.83562,138.17797,,1,,0
J22209944_1,南町公会堂,島田市,34.828842,138.180703,,0,J22209944,0
J22209846_0,上伊太下,島田市,34.8567828,138.1479616,,0,J22209846,0
J22209787_0,第二中学校入口,島田市,34.8422895,138.1753975,,0,J22209787,0
J22209731,山の家,島田市,34.9014372,138.1122733,,1,,0
J2220952428,落合春日神社,島田市,34.8571,138.175408,,1,,0
J22209005_0,金谷清水町,島田市,34.8236855,138.131468,,0,J22209005,0
J22209905_0,デイサービスセンター前,島田市,34.9380288,138.08604,,0,J22209905,0
J22209009_1,横岡新田,島田市,34.855516,138.117855,,0,J22209009,0
J222093395_0,谷口辻,島田市,34.816445,138.214144,,0,J222093395,0
J22209797,下湯日西,島田市,34.80262,138.191795,,1,,0
J22209791,市役所,島田市,34.835895,138.1763232,,1,,0
J22209775,広長橋,島田市,34.8684079,138.1321161,,1,,0
J22209937_1,さくら入口,島田市,34.8354909,138.2267564,,0,J22209937,0
J2220952635_0,渡島橋,島田市,34.9308555,138.0863966,,0,J2220952635,0
J22209001_0,金谷中入口西,島田市,34.8311851,138.1232768,,0,J22209001,0
J22209873_1,童子沢入口,島田市,34.8507202,138.0953768,,0,J22209873,0
J22209824_0,落合上,島田市,34.85777,138.180247,,0,J22209824,0
J22209748_0,笹ヶ久保公園,島田市,34.8494972,138.142924,,0,J22209748,0
J22209862,グループホームひぎり,島田市,34.837352,138.124131,,1,,0
J22209889,浅川橋南,島田市,34.802535,138.121078,,1,,0
J22209009_0,横岡新田,島田市,34.855527,138.117928,,0,J22209009,0
J22209951_1,千歳橋,島田市,34.8387276,138.1895137,,0,J22209951,0
J22209843_0,田代環境プラザ,島田市,34.8690824,138.1527228,,0,J22209843,0
J22209927_0,久野0,島田市,35.0355788,138.1670273,,0,J22209927,0
J22209966_0,向谷四丁目北,島田市,34.8424608,138.1523303,,0,J22209966,0
J22209966_1,向谷四丁目北,島田市,34.8423996,138.1522232,,0,J22209966,0
J22209939,六合東小学校南,島田市,34.83328,138.222383,,1,,0
J22209728,川口東,島田市,34.9053206,138.1138097,,1,,0
J22209920_0,西久保,島田市,35.0144639,138.1443941,,0,J22209920,0
J2220950455_1,元島田,島田市,34.8431304,138.1812662,,0,J2220950455,0
J22209799_1,沼伏西,島田市,34.801869,138.199556,,0,J22209799,0
J22209744_0,渡口,島田市,34.861231,138.1304323,,0,J22209744,0
J22209830_0,中央公園・ばらの丘,島田市,34.8512096,138.174866,,0,J22209830,0
J22209736_0,神座小学校,島田市,34.8750637,138.1088306,,0,J22209736,0
J22209741,甚六,島田市,34.8688958,138.1207283,,1,,0
J22209779_1,向谷一丁目,島田市,34.8431701,138.1493052,,0,J22209779,0
J22209766_1,和田,島田市,34.8838342,138.1451771,,0,J22209766,0
J22209751_0,向谷中,島田市,34.8419536,138.1496673,,0,J22209751,0
J22209012,カーマアットホーム金谷店前,島田市,34.832924,138.134829,,1,,0
J222093339_0,本通三丁目,島田市,34.8325499,138.1747086,,0,J222093339,0
J22209954_1,島田年金事務所,島田市,34.8348108,138.1782997,,0,J22209954,0
J22209848_0,伊太団地,島田市,34.8546793,138.1532875,,0,J22209848,0
J22209794_0,原の平西,島田市,34.8058799,138.1806104,,0,J22209794,0
J22209719,中平下,島田市,34.9339832,138.1428434,,1,,0
J22209954,島田年金事務所,島田市,34.8349036,138.17838,,1,,0
J22209783,中溝町東,島田市,34.8418826,138.1643754,,1,,0
J22209751,向谷中,島田市,34.841914,138.1496297,,1,,0
J22209782_1,中溝町西,島田市,34.8415847,138.1609213,,0,J22209782,0
J22209847_0,小山田橋,島田市,34.8533291,138.1509152,,0,J22209847,0
J22209768_1,高山,島田市,34.881222,138.1427231,,0,J22209768,0
J22209760_1,大井町,島田市,34.8341306,138.1719753,,0,J22209760,0
J22209730_1,川口,島田市,34.9030462,138.1121457,,0,J22209730,0
J22209718_1,中平中,島田市,34.9350395,138.1448648,,0,J22209718,0
J22209936,東町四丁目,島田市,34.836796,138.225819,,1,,0
J22209850,島田樟誠高校,島田市,34.8485747,138.1537067,,1,,0
J22209781_1,三ッ合町東,島田市,34.8414791,138.1580815,,0,J22209781,0
J22209810_1,谷口下,島田市,34.819336,138.212226,,0,J22209810,0
J22209764_1,西の谷橋,島田市,34.8870966,138.1479154,,0,J22209764,0
J22209735_1,上神座,島田市,34.8768258,138.1064651,,0,J22209735,0
J22209717,中平,島田市,34.9390519,138.1454068,,1,,0
J22209769_1,禰宜地上,島田市,34.8793736,138.1410058,,0,J22209769,0
J22209716_0,笹渕,島田市,34.9414563,138.1477838,,0,J22209716,0
J22209757_0,若松町,島田市,34.8371105,138.1635587,,0,J22209757,0
J22209749_1,向谷水門,島田市,34.8437428,138.1453195,,0,J22209749,0
J22209897_1,栄町,島田市,34.8273312,138.1292771,,0,J22209897,0
J22209783_0,中溝町東,島田市,34.8419222,138.1643164,,0,J22209783,0
J22209918_0,和井中,島田市,35.0088576,138.1463569,,0,J22209918,0
J222093397_1,色尾,島田市,34.80686,138.218933,,0,J222093397,0
J22209947,旭町中,島田市,34.8298056,138.1887952,,1,,0
J22209754_1,三ッ合橋,島田市,34.840158,138.1565733,,0,J22209754,0
J22209763,養徳寺入口,島田市,34.8888904,138.1484942,,1,,0
J22209006_1,金谷高校前,島田市,34.8276535,138.1272894,,0,J22209006,0
J22209945_0,宝来町,島田市,34.8287876,138.1828226,,0,J22209945,0
J22209810_0,谷口下,島田市,34.818901,138.212442,,0,J22209810,0
J22209903,家山,島田市,34.943449,138.076505,,1,,0
J22209938_0,六合東小学校東,島田市,34.8343515,138.2251303,,0,J22209938,0
J22209860_1,夢づくり会館,島田市,34.843254,138.124924,,0,J22209860,0
J22209913_0,日向,島田市,34.9890392,138.1226774,,0,J22209913,0
J22209751_1,向谷中,島田市,34.8418708,138.1496271,,0,J22209751,0
J22209915,三並,島田市,34.99222,138.134971,,1,,0
J22209835,本通六丁目,島田市,34.8322998,138.1805564,,1,,0
J22209944_0,南町公会堂,島田市,34.8287612,138.1809333,,0,J22209944,0
J22209845_0,上伊太公会堂,島田市,34.8597073,138.147245,,0,J22209845,0
J22209832_0,市役所西,島田市,34.8365176,138.1755479,,0,J22209832,0
J22209763_1,養徳寺入口,島田市,34.8888614,138.1484311,,0,J22209763,0
J22209799,沼伏西,島田市,34.8020231,138.1998001,,1,,0
J22209923_1,下二俣,島田市,35.027677,138.158226,,0,J22209923,0
J22209776_0,宮沢,島田市,34.8662674,138.1323182,,0,J22209776,0
J22209921,粟原下,島田市,35.0275136,138.1507176,,1,,0
J22209926,上二俣,島田市,35.0343814,138.1631694,,1,,0
J22209815_0,六合駅（湯日線）,島田市,34.836627,138.204737,,0,J22209815,0
J22209787,第二中学校入口,島田市,34.8413794,138.1755141,,1,,0
J22209903_1,家山,島田市,34.943499,138.076411,,0,J22209903,0
J22209952_0,元島田公園東,島田市,34.839548,138.185607,,0,J22209952,0
J22209817_1,大草上,島田市,34.870323,138.181623,,0,J22209817,0
J22209814_0,六合消防署,島田市,34.8343289,138.2052422,,0,J22209814,0
J22209001_1,金谷中入口西,島田市,34.831141,138.123191,,0,J22209001,0
J22209777_1,赤松発電所,島田市,34.8633323,138.1317156,,0,J22209777,0
J22209749,向谷水門,島田市,34.8438005,138.1453173,,1,,0
J22209876,向川公民館,島田市,34.844789,138.1101183,,1,,0
J22209815,六合駅,島田市,34.8366494,138.2044297,,1,,0
J22209955,ぴ～ファイブ西,島田市,34.8333404,138.1780231,,1,,0
J22209824,落合上,島田市,34.857858,138.180223,,1,,0
J22209883_1,諏訪原城跡,島田市,34.8158909,138.1182073,,0,J22209883,0
J22209837_0,本通七丁目東,島田市,34.8336857,138.186539,,0,J22209837,0
J2220952635,渡島橋,島田市,34.9308731,138.0863108,,1,,0
J22209866,中町,島田市,34.8249856,138.1310287,,1,,0
J22209800,沼伏,島田市,34.8034661,138.2038059,,1,,0
J22209732,北鵜網,島田市,34.8911596,138.1191952,,1,,0
J22209925_1,篠上公民館前1,島田市,35.031134,138.1612734,,0,J22209925,0
J22209837_1,本通七丁目東,島田市,34.8337036,138.186341,,0,J22209837,0
J222093395_1,谷口辻,島田市,34.816383,138.214348,,0,J222093395,0
J22209886,松島,島田市,34.810919,138.115125,,1,,0
J22209794,原の平西,島田市,34.805827,138.180546,,1,,0
J22209008_1,番生寺会館前,島田市,34.8374596,138.1186903,,0,J22209008,0
J22209795_1,原の平,島田市,34.80498,138.1833754,,0,J22209795,0
J22209895,東町中,島田市,34.826669,138.139022,,1,,0
J222093343,保健福祉センター入口,島田市,34.8403436,138.180092,,1,,0
J22209880_0,金谷北地域交流センター,島田市,34.8467005,138.121297,,0,J22209880,0
J22209956_1,本通一丁目,島田市,34.832748,138.173297,,0,J22209956,0
J22209809_1,旧初下,島田市,34.8144586,138.2153562,,0,J22209809,0
J22209755_0,三ッ合町,島田市,34.8392166,138.1580104,,0,J22209755,0
J22209918,和井中,島田市,35.0088928,138.1462282,,1,,0
J22209804,月坂一丁目,島田市,34.804555,138.212734,,1,,0
J22209754,三ッ合橋,島田市,34.8401844,138.1566315,,1,,0
J22209713,御堂沢,島田市,34.9518729,138.1525729,,1,,0
J22209901_0,家山駅前,島田市,34.9407954,138.0777883,,0,J22209901,0
J22209925_0,篠上公民館前0,島田市,35.0311309,138.1614331,,0,J22209925,0
J22209905,デイサービスセンター前,島田市,34.9384257,138.0861151,,1,,0
J22209869,岡穂平公民館,島田市,34.8592207,138.0834545,,1,,0
J22209912_0,桑の山,島田市,34.9835714,138.1171254,,0,J22209912,0
J22209817_0,大草上,島田市,34.870488,138.181452,,0,J22209817,0
J22209791_0,市役所,島田市,34.8358686,138.176232,,0,J22209791,0
J22209008_0,番生寺会館前,島田市,34.8374244,138.1185771,,0,J22209008,0
J22209868_1,栗島公民館,島田市,34.865139,138.0788408,,0,J22209868,0
J22209955_0,ぴ～ファイブ西,島田市,34.833402,138.178125,,0,J22209955,0
J22209782_0,中溝町西,島田市,34.8416874,138.1607695,,0,J22209782,0
J22209937,さくら入口,島田市,34.8354171,138.2267738,,1,,0
J222093326,田町,島田市,34.8208569,138.1269429,,1,,0
J22209914,高日向,島田市,34.9882675,138.1281002,,1,,0
J22209837,本通七丁目東,島田市,34.833672,138.186462,,1,,0
J22209901_1,家山駅前,島田市,34.9406757,138.0777145,,0,J22209901,0
J22209886_1,松島,島田市,34.810936,138.115193,,0,J22209886,0
J2220950150_0,新金谷駅前,島田市,34.82615,138.136894,,0,J2220950150,0
J2220952428_0,落合春日神社,島田市,34.8571,138.175408,,0,J2220952428,0
J22209844_0,玉雲寺西,島田市,34.8619136,138.1470594,,0,J22209844,0
J22209784_0,旗指西,島田市,34.8420894,138.1688864,,0,J22209784,0
J22209013,むらい金谷店前,島田市,34.828996,138.1379059,,1,,0
J22209916,竹島,島田市,35.0023725,138.1380187,,1,,0
J22209888_1,神谷城西公民館前,島田市,34.8061171,138.1191511,,0,J22209888,0
J222092081_4,金谷駅前（金谷循環線・大代線）,島田市,34.8191261,138.1248029,,0,J222092081,0
J22209877_1,堤間団地東,島田市,34.8442439,138.1166839,,0,J22209877,0
J22209949_0,御仮屋南,島田市,34.8342453,138.1909572,,0,J22209949,0
J22209796,ふれあいセンター,島田市,34.804659,138.186022,,1,,0
J22209792_0,幸町,島田市,34.8346186,138.1751529,,0,J22209792,0
J22209769_0,禰宜地上,島田市,34.879359,138.141129,,0,J22209769,0
J22209754_0,三ッ合橋,島田市,34.8401932,138.1566798,,0,J22209754,0
J22209788,はなみずき,島田市,34.8409562,138.1791317,,1,,0
J22209768_0,高山,島田市,34.8813046,138.1428741,,0,J22209768,0
J22209902,家山駅入口,島田市,34.9410394,138.0763973,,1,,0
J22209887,神谷城保育園前,島田市,34.806865,138.119527,,1,,0
J22209726,やまゆり,島田市,34.919929,138.1266037,,1,,0
J22209902_1,家山駅入口,島田市,34.9410118,138.0763843,,0,J22209902,0
J22209928_0,日掛0,島田市,35.0380483,138.1707499,,0,J22209928,0
J22209793_0,本村,島田市,34.8063366,138.1771273,,0,J22209793,0
J22209796_1,ふれあいセンター,島田市,34.804535,138.186069,,0,J22209796,0
J22209894,東町,島田市,34.826717,138.137324,,1,,0
J22209743_1,JA島田北支店,島田市,34.8652952,138.1255517,,0,J22209743,0
J22209881_1,猪土居北,島田市,34.811601,138.134092,,0,J22209881,0
J22209883_0,諏訪原城跡,島田市,34.8160195,138.1179974,,0,J22209883,0
J22209874_1,なでしこ公民館,島田市,34.8490126,138.0983694,,0,J22209874,0
J22209773_0,相賀小学校,島田市,34.8737464,138.1348584,,0,J22209773,0
J22209899,金谷中入口,島田市,34.832026,138.1266881,,1,,0
J22209890,石神,島田市,34.796246,138.1236787,,1,,0
J22209825,大津小学校,島田市,34.855094,138.18141,,1,,0
J22209003_0,金谷泉町,島田市,34.831876,138.131715,,0,J22209003,0
J2220952630_0,丹原,島田市,34.9170977,138.0976295,,0,J2220952630,0
J22209945_1,宝来町,島田市,34.8288712,138.1829614,,0,J22209945,0
J22209838_0,御仮屋,島田市,34.8346837,138.190437,,0,J22209838,0
J22209918_1,和井中,島田市,35.008909,138.1461134,,0,J22209918,0
J22209740_1,五番組公会堂,島田市,34.870559,138.1176683,,0,J22209740,0
J22209885,菊川の里会館,島田市,34.818988,138.108699,,1,,0
J2220950150,新金谷駅前,島田市,34.8261412,138.1369316,,1,,0
J22209882_0,お茶の郷,島田市,34.8145097,138.1337516,,0,J22209882,0
J22209881_0,猪土居北,島田市,34.811396,138.134111,,0,J22209881,0
J22209949_1,御仮屋南,島田市,34.8340848,138.1910643,,0,J22209949,0
J22209842_1,伊太和里の湯,島田市,34.872471,138.1559647,,0,J22209842,0
J22209951,千歳橋,島田市,34.8386986,138.1894688,,1,,0
J22209950,八六橋,島田市,34.8366786,138.1908425,,1,,0
J22209752_1,向谷四丁目南,島田市,34.8414898,138.1519253,,0,J22209752,0
J22209932,北島公園入口,島田市,34.8368824,138.2156229,,1,,0
J22209938,六合東小学校東,島田市,34.8343999,138.2251035,,1,,0
J222092080,金谷小学校前,島田市,34.825939,138.1290682,,1,,0
J22209842_0,伊太和里の湯,島田市,34.8724715,138.1559581,,0,J22209842,0
J22209777_0,赤松発電所,島田市,34.8631908,138.1317143,,0,J22209777,0
J22209787_4,第二中学校入口,島田市,34.8412152,138.176524,,0,J22209787,0
J22209778_1,竜泉院,島田市,34.8436674,138.1464405,,0,J22209778,0
J22209722,伊久美小学校,島田市,34.9288819,138.140109,,1,,0
J22209003,金谷泉町,島田市,34.831876,138.131715,,1,,0
J22209842,伊太和里の湯,島田市,34.8724715,138.1559635,,1,,0
J22209779,向谷一丁目,島田市,34.8431193,138.1492828,,1,,0
J22209759,電灯小路入口,島田市,34.834823,138.169983,,1,,0
J22209915_1,三並,島田市,34.9921892,138.1348798,,0,J22209915,0
J22209774_0,杉沢下,島田市,34.8719878,138.1335228,,0,J22209774,0
J22209872_1,四分一,島田市,34.8505368,138.0878423,,0,J22209872,0
J22209713_0,御堂沢,島田市,34.9518663,138.1525837,,0,J22209713,0
J22209870,五和製茶前,島田市,34.8558387,138.0833598,,1,,0
J22209793,本村,島田市,34.806319,138.177299,,1,,0
J22209931,細島橋,島田市,34.836249,138.21242,,1,,0
J22209721,小川橋,島田市,34.9298448,138.1416828,,1,,0
J2220952630_1,丹原,島田市,34.9169834,138.0976242,,0,J2220952630,0
J22209873_0,童子沢入口,島田市,34.8508291,138.095323,,0,J22209873,0
J22209772_0,杉沢上,島田市,34.8759337,138.1365526,,0,J22209772,0
J22209860,夢づくり会館,島田市,34.8432489,138.1249288,,1,,0
J22209741_1,甚六,島田市,34.8688496,138.1207604,,0,J22209741,0
J22209784,旗指西,島田市,34.8420366,138.1689508,,1,,0
J22209828,上野田,島田市,34.849258,138.182877,,1,,0
J22209738,虚空蔵尊入口,島田市,34.8726832,138.1135939,,1,,0
J22209011_1,島田金谷インター入口,島田市,34.8528818,138.1188887,,0,J22209011,0
J22209833_1,本通三丁目東,島田市,34.832816,138.176165,,0,J22209833,0
J22209841_0,島田工業高校,島田市,34.8376336,138.2026423,,0,J22209841,0
J22209839_0,栃山橋,島田市,34.8359091,138.1975676,,0,J22209839,0
J22209781,三ッ合町東,島田市,34.8415242,138.1579363,,1,,0
J22209966,向谷四丁目北,島田市,34.8424308,138.1522724,,1,,0
J22209778,竜泉院,島田市,34.8437399,138.1464383,,1,,0
J22209880_1,金谷北地域交流センター,島田市,34.8464364,138.1213344,,0,J22209880,0
J22209831_1,第二中学校,島田市,34.8445135,138.1750222,,0,J22209831,0
J22209797_0,下湯日西,島田市,34.802647,138.191794,,0,J22209797,0
J22209851,向谷元町,島田市,34.8447214,138.1565607,,1,,0
J22209722_1,伊久美小学校,島田市,34.9288568,138.1400679,,0,J22209722,0
J22209945,宝来町,島田市,34.8288229,138.1828923,,1,,0
J22209803,月坂一丁目西,島田市,34.8036974,138.210573,,1,,0
J22209765,後畑入口,島田市,34.8851896,138.1473129,,1,,0
J22209947_0,旭町中,島田市,34.8297616,138.1889078,,0,J22209947,0
J22209908_0,笹間渡駅前,島田市,34.962722,138.0864017,,0,J22209908,0
J22209911_1,五軒屋,島田市,34.9806692,138.1099461,,0,J22209911,0
J22209765_0,後畑入口,島田市,34.8851764,138.1474148,,0,J22209765,0
J22209714,二俣上,島田市,34.950463,138.1519746,,1,,0
J22209781_0,三ッ合町東,島田市,34.8415903,138.157888,,0,J22209781,0
J22209750_1,向谷西,島田市,34.8421446,138.1479098,,0,J22209750,0
J22209738_1,虚空蔵尊入口,島田市,34.8726913,138.113519,,0,J22209738,0
J22209756,若松町西,島田市,34.8379998,138.1596072,,1,,0
J22209812,道悦島,島田市,34.830723,138.205186,,1,,0
J22209904_1,高木医院前,島田市,34.941562,138.086128,,0,J22209904,0
J22209731_1,山の家,島田市,34.9015139,138.1122449,,0,J22209731,0
J22209786_0,中河町,島田市,34.841546,138.1741942,,0,J22209786,0
J22209717_0,中平,島田市,34.9389692,138.1454028,,0,J22209717,0
J22209743,JA島田北支店,島田市,34.8652912,138.1256356,,1,,0
J2220952635_1,渡島橋,島田市,34.9309083,138.0862464,,0,J2220952635,0
J22209876_0,向川公民館,島田市,34.8448286,138.1100968,,0,J22209876,0
J22209786_1,中河町,島田市,34.8414439,138.1741639,,0,J22209786,0
J22209805,月坂二丁目,島田市,34.805308,138.2147178,,1,,0
J22209002_0,金谷往還下,島田市,34.8232983,138.1355024,,0,J22209002,0
J22209825_1,大津小学校,島田市,34.855202,138.181378,,0,J22209825,0
J22209726_1,やまゆり,島田市,34.9199937,138.1266461,,0,J22209726,0
J22209742,オレンジタウン神座入口,島田市,34.8671004,138.1231589,,1,,0
J22209820_0,大草住宅,島田市,34.864766,138.182164,,0,J22209820,0
J22209811_0,谷口橋,島田市,34.820826,138.210526,,0,J22209811,0
J22209719_0,中平下,島田市,34.9339578,138.142937,,0,J22209719,0
J22209750_0,向谷西,島田市,34.8422426,138.1477612,,0,J22209750,0
J22209770,禰宜地橋,島田市,34.8784684,138.139557,,1,,0
J22209891_1,石神上,島田市,34.8041533,138.1243815,,0,J22209891,0
J22209943_1,島田南幼稚園,島田市,34.828792,138.1766791,,0,J22209943,0
J22209737_1,水神入口,島田市,34.873683,138.1114055,,0,J22209737,0
J22209883,諏訪原城跡,島田市,34.815905,138.118051,,1,,0
J22209746,北中学校,島田市,34.8528152,138.1391036,,1,,0
J22209913_1,日向,島田市,34.9889942,138.1223376,,0,J22209913,0
J22209800_1,沼伏,島田市,34.803482,138.203873,,0,J22209800,0
J22209727_0,長島,島田市,34.9102992,138.1280882,,0,J22209727,0
J22209759_0,電灯小路入口,島田市,34.8348714,138.1700527,,0,J22209759,0
J22209778_0,竜泉院,島田市,34.8438059,138.1464114,,0,J22209778,0
J222093339,本通三丁目,島田市,34.8325927,138.1746752,,1,,0
J222093345,島田市民病院,島田市,34.8454471,138.1828756,,1,,0
J22209868_0,栗島公民館,島田市,34.8651891,138.0789112,,0,J22209868,0
J22209930,六合小学校,島田市,34.8361094,138.2100701,,1,,0
J222093386,島田郵便局,島田市,34.8379381,138.1757964,,1,,0
J22209823,永福荘,島田市,34.859728,138.179899,,1,,0
J22209770_1,禰宜地橋,島田市,34.8785208,138.1395848,,0,J22209770,0
J2220952630,丹原,島田市,34.9170449,138.0975651,,1,,0
J22209912,桑の山,島田市,34.983545,138.116943,,1,,0
J22209820,大草住宅,島田市,34.864394,138.180806,,1,,0
J22209866_0,中町,島田市,34.8249988,138.1310931,,0,J22209866,0
J22209953_1,元島田西,島田市,34.8404406,138.1821275,,0,J22209953,0
J22209826_0,落合,島田市,34.853593,138.18199,,0,J22209826,0
J22209806_1,初倉消防署,島田市,34.806162,138.217048,,0,J22209806,0
J2220952426,ばらの丘一丁目,島田市,34.855783,138.172888,,1,,0
J22209934_1,陣屋橋西,島田市,34.839498,138.221338,,0,J22209934,0
J22209915_0,三並,島田市,34.9921145,138.1349066,,0,J22209915,0
J22209810,谷口下,島田市,34.8191337,138.2123407,,1,,0
J222092081_3,金谷駅前（夢づくり会館線・菊川神谷城線）,島田市,34.8190748,138.1248506,,0,J222092081,0
J22209877_0,堤間団地東,島田市,34.8443182,138.1167518,,0,J22209877,0
J222093343_0,保健福祉センター入口,島田市,34.84037,138.1801457,,0,J222093343,0
J22209718,中平中,島田市,34.9351385,138.1449426,,1,,0
J22209928,日掛,島田市,35.0380483,138.17075,,1,,0
J22209720,伊久美郵便局,島田市,34.9327712,138.1415728,,1,,0
J222093340,島田駅,島田市,34.8300891,138.1742785,,1,,0
J22209748,笹ヶ久保公園,島田市,34.8494796,138.142806,,1,,0
J22209884_1,菊翠茶農協前,島田市,34.8226286,138.1025868,,0,J22209884,0
J22209813_1,六合中学校,島田市,34.833735,138.203906,,0,J22209813,0
J22209733_0,鵜網,島田市,34.8889572,138.1192491,,0,J22209733,0
J22209934,陣屋橋西,島田市,34.839418,138.221357,,1,,0
J22209920,西久保,島田市,35.0145342,138.1442654,,1,,0
J22209903_0,家山,島田市,34.943449,138.076505,,0,J22209903,0
J222093339_1,本通三丁目,島田市,34.8326535,138.1746162,,0,J222093339,0
J22209803_1,月坂一丁目西,島田市,34.803675,138.21065,,0,J22209803,0
J22209748_1,笹ヶ久保公園,島田市,34.8494443,138.1427041,,0,J22209748,0
J22209875,影島,島田市,34.8462402,138.1051869,,1,,0
J22209935,全仲寺東,島田市,34.838743,138.2245,,1,,0
J22209795,原の平,島田市,34.804984,138.183254,,1,,0
J22209876_1,向川公民館,島田市,34.8447374,138.110139,,0,J22209876,0
J22209827_1,上野田公会堂,島田市,34.851644,138.182997,,0,J22209827,0
J22209906,身成北,島田市,34.945728,138.0890283,,1,,0
J22209735_0,上神座,島田市,34.8772087,138.1063313,,0,J22209735,0
J22209838,御仮屋,島田市,34.8347206,138.1903641,,1,,0
J22209816,天徳寺,島田市,34.871723,138.180619,,1,,0
J22209840_0,栃山,島田市,34.8366078,138.1994959,,0,J22209840,0
J22209943,島田南幼稚園,島田市,34.828699,138.176794,,1,,0
J22209774,杉沢下,島田市,34.872045,138.1335603,,1,,0
J22209817,大草上,島田市,34.870298,138.181641,,1,,0
J22209725_0,犬間橋,島田市,34.9219138,138.1308229,,0,J22209725,0
J22209728_0,川口東,島田市,34.9052876,138.1137587,,0,J22209728,0
J22209742_0,オレンジタウン神座入口,島田市,34.8669044,138.1234513,,0,J22209742,0
J22209949,御仮屋南,島田市,34.8341837,138.1910001,,1,,0
J22209890_1,石神,島田市,34.7962593,138.1237701,,0,J22209890,0
J22209955_1,ぴ〜ファイブ西,島田市,34.833371,138.1779724,,0,J22209955,0
J22209916_1,竹島,島田市,35.0023706,138.1379382,,0,J22209916,0
J22209766_0,和田,島田市,34.8838011,138.1452602,,0,J22209766,0
J22209832,市役所西,島田市,34.8364481,138.1754801,,1,,0
J22209808,旧初,島田市,34.8127872,138.216198,,1,,0
J22209728_1,川口東,島田市,34.9053478,138.113868,,0,J22209728,0
J22209777,赤松発電所,島田市,34.8632612,138.1317143,,1,,0
J22209762,上相賀橋,島田市,34.8909918,138.1485902,,1,,0
J22209729,伊久身幼稚園上,島田市,34.9049814,138.1119205,,1,,0
J22209858_0,島中,島田市,34.8407534,138.1238333,,0,J22209858,0
J22209846_1,上伊太下,島田市,34.856663,138.147921,,0,J22209846,0
J2220950455_0,元島田,島田市,34.8430292,138.1813467,,0,J2220950455,0
J22209818_1,大草公会堂,島田市,34.867658,138.182841,,0,J22209818,0
J22209807_0,旧初上,島田市,34.809843,138.218319,,0,J22209807,0
J22209746_0,北中学校,島田市,34.8528593,138.1391197,,0,J22209746,0
J22209775_1,広長橋,島田市,34.8683716,138.1320689,,0,J22209775,0
J22209765_1,後畑入口,島田市,34.885192,138.1471751,,0,J22209765,0
J2220952645_0,川根中学校入口,島田市,34.9427556,138.0875228,,0,J2220952645,0
J22209859_1,エコトープ前,島田市,34.8421968,138.1263187,,0,J22209859,0
J22209954_0,島田年金事務所,島田市,34.8349652,138.1784604,,0,J22209954,0
J22209799_0,沼伏西,島田市,34.802134,138.199918,,0,J22209799,0
J22209761,上相賀,島田市,34.8921676,138.1493135,,1,,0
J22209869_1,岡穂平公民館,島田市,34.859163,138.083414,,0,J22209869,0
J22209847,小山田橋,島田市,34.8533247,138.1509528,,1,,0
J222092081,金谷駅前,島田市,34.8190189,138.12505,,1,,0
J22209818,大草公会堂,島田市,34.867702,138.182772,,1,,0
J2220952427_0,ばらの丘二丁目,島田市,34.857927,138.17281,,0,J2220952427,0
J2220952645,川根中学校入口,島田市,34.942826,138.0875121,,1,,0
J22209726_0,やまゆり,島田市,34.9198696,138.1265608,,0,J22209726,0
J22209880,金谷北地域交流センター,島田市,34.8466125,138.121297,,1,,0
J22209725_1,犬間橋,島田市,34.9219163,138.1306658,,0,J22209725,0
J22209833,本通三丁目東,島田市,34.8327828,138.1760714,,1,,0
J22209750,向谷西,島田市,34.842203,138.147847,,1,,0
J22209011_0,島田金谷インター入口,島田市,34.8529262,138.1189475,,0,J22209011,0
J22209805_0,月坂二丁目,島田市,34.8052312,138.2144361,,0,J22209805,0
J222093397_0,色尾,島田市,34.806829,138.218633,,0,J222093397,0
J22209758_1,宮川町,島田市,34.8360598,138.1662942,,0,J22209758,0
J22209904,高木医院前,島田市,34.941492,138.086204,,1,,0
J22209758_0,宮川町,島田市,34.8359481,138.1668271,,0,J22209758,0
J22209863,金谷庁舎前,島田市,34.8347714,138.1261655,,1,,0
J22209755,三ッ合町,島田市,34.839199,138.1579728,,1,,0
J22209871_1,大代茶農協前,島田市,34.8527494,138.0841002,,0,J22209871,0
J222093340_1,島田駅 北口１番のりば,島田市,34.8306434,138.1735064,,0,J222093340,0
J22209792_1,幸町,島田市,34.834791,138.1750767,,0,J22209792,0
J22209836_1,島田商業高校,島田市,34.8331775,138.184195,,0,J22209836,0
J22209868,栗島公民館,島田市,34.8651648,138.0788763,,1,,0
J22209010_0,東町東,島田市,34.8271515,138.1394508,,0,J22209010,0
J22209833_0,本通三丁目東,島田市,34.83275,138.175958,,0,J22209833,0
J22209923_0,下二俣,島田市,35.0276964,138.1583496,,0,J22209923,0
J22209823_0,永福荘,島田市,34.859773,138.179902,,0,J22209823,0
J22209007,食鮮館タイヨー栄町店前,島田市,34.830996,138.12885,,1,,0
J22209907_0,川根温泉前・川根温泉ホテル,島田市,34.9599743,138.0899179,,0,J22209907,0
J22209889_1,浅川橋南,島田市,34.8025413,138.12119,,0,J22209889,0
J22209914_1,高日向,島田市,34.988378,138.128185,,0,J22209914,0
J22209780_1,三ッ合町西,島田市,34.8416069,138.1557478,,0,J22209780,0
J22209798_0,下湯日,島田市,34.801938,138.19583,,0,J22209798,0
J22209835_1,本通六丁目,島田市,34.8323675,138.1804879,,0,J22209835,0
J22209789_0,はなみずき入口,島田市,34.840172,138.1800802,,0,J22209789,0
J22209952,元島田公園東,島田市,34.8396038,138.1856811,,1,,0
J22209931_1,細島橋,島田市,34.836337,138.212369,,0,J22209931,0
J22209932_1,北島公園入口,島田市,34.836874,138.215523,,0,J22209932,0
J22209871_0,大代茶農協前,島田市,34.8527465,138.0842119,,0,J22209871,0
J22209909_1,村上,島田市,34.9760541,138.0983109,,0,J22209909,0
J22209802,色尾西,島田市,34.8042936,138.2091907,,1,,0
J22209004,金谷根岸町,島田市,34.8293116,138.125093,,1,,0
J22209843,田代環境プラザ,島田市,34.869144,138.1527388,,1,,0
J22209899_1,金谷中入口,島田市,34.8320393,138.1266344,,0,J22209899,0
J22209809_0,旧初下,島田市,34.814131,138.215431,,0,J22209809,0
J22209746_1,北中学校,島田市,34.8527626,138.1390916,,0,J22209746,0
J22209739_1,大沢橋,島田市,34.8712521,138.1164989,,0,J22209739,0
J22209007_0,食鮮館タイヨー栄町店前,島田市,34.830996,138.12885,,0,J22209007,0
J222093340_5,島田駅 南口５番のりば,島田市,34.8294766,138.1737292,,0,J222093340,0
J22209764_0,西の谷橋,島田市,34.887073,138.1480374,,0,J22209764,0
J22209714_1,二俣上,島田市,34.9504278,138.1519236,,0,J22209714,0
J22209923,下二俣,島田市,35.0277051,138.1582959,,1,,0
J22209730,川口,島田市,34.9030828,138.1121808,,1,,0
J22209715,二俣,島田市,34.9487632,138.1513114,,1,,0
J22209910_0,丸山,島田市,34.976479,138.104768,,0,J22209910,0
J22209819_0,慶寿寺入口,島田市,34.86589,138.183271,,0,J22209819,0
J22209787_3,第二中学校入口,島田市,34.8413249,138.1762393,,0,J22209787,0
J22209788_1,はなみずき,島田市,34.8409078,138.1792389,,0,J22209788,0
J22209012_0,カーマアットホーム金谷店前,島田市,34.832924,138.134829,,0,J22209012,0
J22209935_1,全仲寺東,島田市,34.838688,138.224621,,0,J22209935,0
J22209836_0,島田商業高校,島田市,34.8330208,138.1839895,,0,J22209836,0
J22209822,ぎんもくせい,島田市,34.861008,138.179707,,1,,0
J22209930_1,六合小学校,島田市,34.836192,138.209971,,0,J22209930,0
J22209824_1,落合上,島田市,34.857847,138.180313,,0,J22209824,0
J22209814_1,六合消防署,島田市,34.834309,138.205365,,0,J22209814,0
J22209913,日向,島田市,34.989004,138.122495,,1,,0
J22209795_0,原の平,島田市,34.805028,138.183101,,0,J22209795,0
J22209774_1,杉沢下,島田市,34.872099,138.1335923,,0,J22209774,0
J22209767_1,和田寿公会堂,島田市,34.8825379,138.1439457,,0,J22209767,0
J22209714_0,二俣上,島田市,34.9504992,138.1520323,,0,J22209714,0
J22209870_0,五和製茶前,島田市,34.8558211,138.0834242,,0,J22209870,0
J22209922_0,粟原,島田市,35.0286181,138.153722,,0,J22209922,0
J22209909_0,村上,島田市,34.9759528,138.0982986,,0,J22209909,0
J22209831_0,第二中学校,島田市,34.844706,138.1750587,,0,J22209831,0
J22209757_1,若松町,島田市,34.8370584,138.1634671,,0,J22209757,0
J22209858,島中,島田市,34.840815,138.123726,,1,,0
J22209952_1,元島田公園東,島田市,34.8396124,138.1857156,,0,J22209952,0
J22209808_1,旧初,島田市,34.812929,138.216164,,0,J22209808,0
J22209797_1,下湯日西,島田市,34.802493,138.191818,,0,J22209797,0
J22209732_0,北鵜網,島田市,34.8910848,138.1192703,,0,J22209732,0
J22209716_1,笹渕,島田市,34.9415073,138.1476343,,0,J22209716,0
J22209895_0,東町中,島田市,34.826669,138.139022,,0,J22209895,0
J22209848_1,伊太団地,島田市,34.854691,138.153162,,0,J22209848,0
J22209919_0,下村,島田市,35.0118834,138.1451358,,0,J22209919,0
J22209926_1,上二俣1,島田市,35.0344105,138.1631346,,0,J22209926,0
J22209847_1,小山田橋,島田市,34.853309,138.1510107,,0,J22209847,0
J22209830_1,中央公園・ばらの丘,島田市,34.8512228,138.1745862,,0,J22209830,0
J22209953,元島田西,島田市,34.8404054,138.1820791,,1,,0
J22209806,初倉消防署,島田市,34.8062137,138.2170097,,1,,0
J22209862_0,グループホームひぎり,島田市,34.8373344,138.1242168,,0,J22209862,0
J22209875_1,影島,島田市,34.8461816,138.105226,,0,J22209875,0
J22209805_1,月坂二丁目,島田市,34.80538,138.215044,,0,J22209805,0
J22209759_1,電灯小路入口,島田市,34.8348224,138.169931,,0,J22209759,0
J22209819_1,慶寿寺入口,島田市,34.866142,138.183383,,0,J22209819,0
J22209762_1,上相賀橋,島田市,34.891084,138.1484631,,0,J22209762,0
J22209733_1,鵜網,島田市,34.8888859,138.119127,,0,J22209733,0
J22209841,島田工業高校,島田市,34.8376609,138.2025196,,1,,0
J22209773_1,相賀小学校,島田市,34.8736525,138.1346766,,0,J22209773,0
J22209734_1,神座宮前,島田市,34.8788656,138.105748,,0,J22209734,0
J22209760,大井町,島田市,34.8341994,138.1719472,,1,,0
J22209737,水神入口,島田市,34.873694,138.1115155,,1,,0
J22209909,村上,島田市,34.9759923,138.0983146,,1,,0
J22209769,禰宜地上,島田市,34.879359,138.1410646,,1,,0
J22209827,上野田公会堂,島田市,34.851646,138.182937,,1,,0
J22209752,向谷四丁目南,島田市,34.841525,138.1519789,,1,,0
J22209912_1,桑の山,島田市,34.983526,138.11677,,0,J22209912,0
J22209818_0,大草公会堂,島田市,34.867676,138.182753,,0,J22209818,0
J22209776_1,宮沢,島田市,34.8663693,138.1322728,,0,J22209776,0
J22209749_0,向谷水門,島田市,34.8438357,138.1453495,,0,J22209749,0
J22209910,丸山,島田市,34.976523,138.10465,,1,,0
J22209796_0,ふれあいセンター,島田市,34.804658,138.185981,,0,J22209796,0
J22209803_0,月坂一丁目西,島田市,34.803722,138.210542,,0,J22209803,0
J22209770_0,禰宜地橋,島田市,34.8784288,138.1395409,,0,J22209770,0
J22209933,北島東公園入口,島田市,34.8383874,138.2189903,,1,,0
J22209839_1,栃山橋,島田市,34.8360435,138.197362,,0,J22209839,0
J22209739_0,大沢橋,島田市,34.8714654,138.1163362,,0,J22209739,0
J22209011,島田金谷インター入口,島田市,34.8529262,138.1189475,,1,,0
J22209927,久野,島田市,35.0356118,138.1670381,,1,,0
J22209906_0,身成北,島田市,34.945717,138.0890793,,0,J22209906,0
J22209902_0,家山駅入口,島田市,34.9410702,138.0764054,,0,J22209902,0
J22209946_1,旭町西,島田市,34.8299078,138.1865395,,0,J22209946,0
J22209926_0,上二俣0,島田市,35.0343463,138.1632016,,0,J22209926,0
J22209734,神座宮前,島田市,34.8787073,138.1058578,,1,,0
J22209722_0,伊久美小学校,島田市,34.9289038,138.1401573,,0,J22209722,0
J22209734_0,神座宮前,島田市,34.878518,138.1060187,,0,J22209734,0
J22209737_0,水神入口,島田市,34.8736903,138.1116199,,0,J22209737,0
J22209723,小川,島田市,34.9272964,138.1397414,,1,,0
J22209783_1,中溝町東,島田市,34.8418403,138.1644539,,0,J22209783,0
J222093386_0,島田郵便局,島田市,34.8379394,138.1758537,,0,J222093386,0
J22209747_0,柳島,島田市,34.8511396,138.14075,,0,J22209747,0
J22209744_1,渡口,島田市,34.8612454,138.1302295,,0,J22209744,0
J222093345_0,島田市民病院,島田市,34.8454515,138.1828756,,0,J222093345,0
J22209788_0,はなみずき,島田市,34.8410125,138.1789758,,0,J22209788,0
J22209724_1,やまびこ,島田市,34.9267123,138.1349655,,0,J22209724,0
J22209005,金谷清水町,島田市,34.8236855,138.131468,,1,,0
J22209882_1,お茶の郷,島田市,34.814345,138.134032,,0,J22209882,0
J22209885_1,菊川の里会館,島田市,34.819009,138.108761,,0,J22209885,0
J22209948_0,旭町東,島田市,34.8319739,138.1908034,,0,J22209948,0
J22209851_1,向谷元町,島田市,34.8446451,138.1565362,,0,J22209851,0
J22209831,第二中学校,島田市,34.8446236,138.1750324,,1,,0
J22209919,下村,島田市,35.0119098,138.1450071,,1,,0
J22209922,粟原,島田市,35.0286796,138.1537327,,1,,0
J22209924,中の瀬,島田市,35.0298822,138.1600807,,1,,0
J2220950455,元島田,島田市,34.8430556,138.1813199,,1,,0
J22209756_0,若松町西,島田市,34.8380615,138.1596394,,0,J22209756,0
J22209881,猪土居北,島田市,34.811396,138.134111,,1,,0
J22209844,玉雲寺西,島田市,34.8618345,138.1470218,,1,,0
J22209766,和田,島田市,34.8838178,138.1452211,,1,,0
J22209785_0,旗指東,島田市,34.8418086,138.1716184,,0,J22209785,0
J22209911_0,五軒屋,島田市,34.9805996,138.1100931,,0,J22209911,0
J22209747_1,柳島,島田市,34.8509812,138.1407446,,0,J22209747,0
J22209740_0,五番組公会堂,島田市,34.8705636,138.1177937,,0,J22209740,0
J22209772_1,杉沢上,島田市,34.875911,138.1364089,,0,J22209772,0
J22209753,第一小学校,島田市,34.8411064,138.1540554,,1,,0
J22209947_1,旭町中,島田市,34.829857,138.188648,,0,J22209947,0
J22209845_1,上伊太公会堂,島田市,34.8595995,138.147154,,0,J22209845,0
J22209801_1,沼伏東,島田市,34.804724,138.205863,,0,J22209801,0
J22209775_0,広長橋,島田市,34.8684255,138.1321697,,0,J22209775,0
J22209720_0,伊久美郵便局,島田市,34.9327813,138.1416095,,0,J22209720,0
J22209723_0,小川,島田市,34.9273348,138.1398182,,0,J22209723,0
J22209917,出本,島田市,35.006796,138.144586,,1,,0
J22209807,旧初上,島田市,34.809909,138.218321,,1,,0
J22209771,寺前橋,島田市,34.876649,138.137756,,1,,0
J22209733,鵜網,島田市,34.8889682,138.1191982,,1,,0
J22209869_0,岡穂平公民館,島田市,34.8592823,138.0834975,,0,J22209869,0
J22209821_0,尾川,島田市,34.863165,138.178973,,0,J22209821,0
J2220952426_0,ばらの丘一丁目,島田市,34.855783,138.172888,,0,J2220952426,0
J22209008,番生寺会館前,島田市,34.8374244,138.1185771,,1,,0
J22209845,上伊太公会堂,島田市,34.8596722,138.1471968,,1,,0
J22209814,六合消防署,島田市,34.8343162,138.2053108,,1,,0
J22209735,上神座,島田市,34.8770283,138.1063796,,1,,0
J22209936_1,東町四丁目,島田市,34.836878,138.225812,,0,J22209936,0
J2220952645_1,川根中学校入口,島田市,34.9428699,138.0874799,,0,J2220952645,0
J22209849_0,伊太団地南,島田市,34.8524284,138.1538408,,0,J22209849,0
J22209898,栄町公会堂前,島田市,34.8295834,138.1280867,,1,,0
J22209807_1,旧初上,島田市,34.809885,138.218372,,0,J22209807,0
J22209905_1,デイサービスセンター前,島田市,34.9384089,138.0861132,,0,J22209905,0
J22209887_1,神谷城保育園前,島田市,34.806954,138.119468,,0,J22209887,0
J22209832_1,市役所西,島田市,34.8364234,138.1754183,,0,J22209832,0
J22209812_0,道悦島,島田市,34.83056,138.205395,,0,J22209812,0
J22209771_1,寺前橋,島田市,34.8766769,138.1377768,,0,J22209771,0
J22209753_0,第一小学校,島田市,34.8411284,138.1540715,,0,J22209753,0
J22209719_1,中平下,島田市,34.9339854,138.1427522,,0,J22209719,0
J22209873,童子沢入口,島田市,34.8507763,138.0953551,,1,,0
J222092080_0,金谷小学校前,島田市,34.8259044,138.1290436,,0,J222092080,0
J22209875_0,影島,島田市,34.8462842,138.1051708,,0,J22209875,0
J22209825_0,大津小学校,島田市,34.854962,138.181423,,0,J22209825,0
J22209790_1,市民会館東,島田市,34.835646,138.178096,,0,J22209790,0
J22209866_1,中町,島田市,34.824976,138.1309532,,0,J22209866,0
J22209743_0,JA島田北支店,島田市,34.8652912,138.1257215,,0,J22209743,0
J22209859,エコトープ前,島田市,34.8421481,138.1264203,,1,,0
J22209757,若松町,島田市,34.8370885,138.1635158,,1,,0
J22209863_0,金谷庁舎前,島田市,34.8347714,138.1261655,,0,J22209863,0
J22209773,相賀小学校,島田市,34.87372,138.1347726,,1,,0
J22209821,尾川,島田市,34.863294,138.179179,,1,,0
J22209764,西の谷橋,島田市,34.887095,138.1479784,,1,,0
J22209867_0,金谷本町,島田市,34.8233364,138.1297474,,0,J22209867,0
J22209872_0,四分一,島田市,34.850528,138.0877189,,0,J22209872,0
J22209761_0,上相賀,島田市,34.8921632,138.1493215,,0,J22209761,0
J22209717_1,中平,島田市,34.93912,138.1454068,,0,J22209717,0
J22209745,相賀橋,島田市,34.8606058,138.1324519,,1,,0
J22209004_0,金谷根岸町,島田市,34.8293116,138.125093,,0,J22209004,0
J22209874_0,なでしこ公民館,島田市,34.8491037,138.0983018,,0,J22209874,0
J22209950_0,八六橋,島田市,34.83652,138.1908103,,0,J22209950,0
J22209780,三ッ合町西,島田市,34.841652,138.155658,,1,,0
J22209956,本通一丁目,島田市,34.832748,138.173297,,1,,0
J22209786,中河町,島田市,34.8415064,138.1741781,,1,,0
J22209925,篠上公民館前,島田市,35.0311484,138.161358,,1,,0
J22209834,本通五丁目,島田市,34.832565,138.1784507,,1,,0
J22209920_1,西久保,島田市,35.0145327,138.1441497,,0,J22209920,0
J22209745_0,相賀橋,島田市,34.8606374,138.1325041,,0,J22209745,0
J22209789_1,はなみずき入口,島田市,34.8402111,138.1799629,,0,J22209789,0
J22209721_1,小川橋,島田市,34.9298162,138.141554,,0,J22209721,0
J22209716,笹渕,島田市,34.9414787,138.1477174,,1,,0
J22209741_0,甚六,島田市,34.8689371,138.1207127,,0,J22209741,0
J22209742_1,オレンジタウン神座入口,島田市,34.8673138,138.1228022,,0,J22209742,0
J22209811,谷口橋,島田市,34.820838,138.210537,,1,,0
J22209724,やまびこ,島田市,34.9267045,138.1348897,,1,,0
J22209860_0,夢づくり会館,島田市,34.8432577,138.1249181,,0,J22209860,0
J22209946_0,旭町西,島田市,34.82983,138.1867562,,0,J22209946,0
J22209806_0,初倉消防署,島田市,34.806242,138.217011,,0,J22209806,0
J22209812_1,道悦島,島田市,34.830992,138.204859,,0,J22209812,0
J22209804_0,月坂一丁目,島田市,34.804448,138.212418,,0,J22209804,0
J22209762_0,上相賀橋,島田市,34.8907498,138.1488316,,0,J22209762,0
J222093326_0,田町,島田市,34.820826,138.1270073,,0,J222093326,0
J222093386_1,島田郵便局,島田市,34.8379045,138.1757426,,0,J222093386,0
J22209910_1,丸山,島田市,34.976634,138.104754,,0,J22209910,0
J22209826_1,落合,島田市,34.853551,138.182076,,0,J22209826,0
J22209801_0,沼伏東,島田市,34.804694,138.205728,,0,J22209801,0
J22209891,石神上,島田市,34.8040826,138.1243841,,1,,0
J22209929_0,道悦四丁目,島田市,34.835214,138.207324,,0,J22209929,0
J22209919_1,下村,島田市,35.011967,138.144922,,0,J22209919,0
J22209816_0,天徳寺,島田市,34.871723,138.180619,,0,J22209816,0
J22209787_1,第二中学校入口,島田市,34.8422403,138.1753002,,0,J22209787,0
J22209732_1,北鵜網,島田市,34.8912108,138.1191596,,0,J22209732,0
J22209715_1,二俣,島田市,34.9487236,138.1512658,,0,J22209715,0
J22209884,菊翠茶農協前,島田市,34.822618,138.102729,,1,,0
J22209944,南町公会堂,島田市,34.8287965,138.1808046,,1,,0
J22209898_1,栄町公会堂前,島田市,34.8296086,138.1280192,,0,J22209898,0
J22209917_0,出本,島田市,35.006796,138.1447469,,0,J22209917,0
J22209822_0,ぎんもくせい,島田市,34.86066,138.179771,,0,J22209822,0
J22209834_1,本通五丁目,島田市,34.8326205,138.1783322,,0,J22209834,0
J22209767,和田寿公会堂,島田市,34.882529,138.1440382,,1,,0
J22209815_1,六合駅（六合南線）,島田市,34.83659,138.2050145,,0,J22209815,0
J22209905_2,デイサービスセンター前,島田市,34.9379777,138.0860558,,0,J22209905,0
J222093343_1,保健福祉センター入口,島田市,34.8403894,138.18004,,0,J222093343,0
J22209790_0,市民会館東,島田市,34.83562,138.17797,,0,J22209790,0
J22209006_0,金谷高校前,島田市,34.8275936,138.1271953,,0,J22209006,0
J22209802_1,色尾西,島田市,34.804261,138.209165,,0,J22209802,0
J22209720_1,伊久美郵便局,島田市,34.9327624,138.1415379,,0,J22209720,0
J22209809,旧初下,島田市,34.8143396,138.2153798,,1,,0
J22209904_0,高木医院前,島田市,34.941492,138.086204,,0,J22209904,0
J22209844_1,玉雲寺西,島田市,34.8617427,138.1470193,,0,J22209844,0
J22209921_0,粟原下,島田市,35.0275136,138.1508035,,0,J22209921,0
J22209821_1,尾川,島田市,34.863297,138.179226,,0,J22209821,0
J22209785,旗指東,島田市,34.8417514,138.1716452,,1,,0
J22209948_1,旭町東,島田市,34.8320721,138.1909245,,0,J22209948,0
J22209823_1,永福荘,島田市,34.859678,138.179997,,0,J22209823,0
J22209767_0,和田寿公会堂,島田市,34.8825114,138.144108,,0,J22209767,0
J22209738_0,虚空蔵尊入口,島田市,34.8726832,138.1137254,,0,J22209738,0
